% program   : RTKLIB ver.2.4.2
% inp file  : /Users/anirudhnishtala/Desktop/ai-positioning-atsc3/DATA/scenarios/scenario1/rover_rnx.obs
% inp file  : /Users/anirudhnishtala/Desktop/ai-positioning-atsc3/DATA/scenarios/scenario1/base_rnx.obs
% inp file  : /Users/anirudhnishtala/Desktop/ai-positioning-atsc3/DATA/scenarios/scenario1/nav.nav
% obs start : 2026/01/11 00:00:00.0 GPST (week2401      0.0s)
% obs end   : 2026/01/11 23:59:30.0 GPST (week2401  86370.0s)
% pos mode  : kinematic
% freqs     : L1
% solution  : forward
% elev mask : 15.0 deg
% dynamics  : on
% tidecorr  : off
% ionos opt : broadcast
% tropo opt : saastamoinen
% ephemeris : broadcast
% amb res   : continuous
% val thres : 3.0
% antenna1  :                       ( 0.0000  0.0000  0.0000)
% antenna2  :                       ( 0.0000  0.0000  0.0000)
% ref pos   : 20.975324465 -73.677948253  -32.4435
%
% (lat/lon/height=WGS84/ellipsoidal,Q=1:fix,2:float,3:sbas,4:dgps,5:single,6:ppp,ns=# of satellites)
%  GPST          latitude(deg) longitude(deg)  height(m)   Q  ns   sdn(m)   sde(m)   sdu(m)  sdne(m)  sdeu(m)  sdun(m) age(s)  ratio
2401      0.000   24.065186383  -74.533780621   -34.1206   2   8   0.5397   0.6981   2.3903   0.2605  -0.8033  -0.7060   0.00    1.1
2401     30.000   24.065184813  -74.533784968   -34.0731   2   8   0.3637   0.4890   1.4416   0.1705  -0.4830  -0.4356   0.00    1.1
2401     60.000   24.065185043  -74.533784110   -32.9024   2   8   0.0000   0.0000   0.0000 133.8027 108.8898 -55.1577   0.00    1.2
2401     90.000   24.065183469  -74.533782095   -31.9332   2   8  96.3366   0.0000  47.3681 -102.5094 -38.8525 -10.2521   0.00    1.3
2401    120.000   24.065183824  -74.533782585   -31.8731   2   8   0.2151   0.2920   0.5245   0.0532  -0.1853  -0.1713   0.00    1.1
2401    150.000   24.065183132  -74.533783600   -31.7659   2   8   0.1723   0.2632   0.4102   0.0744  -0.1349  -0.1454   0.00    1.7
2401    180.000   24.065182030  -74.533782922   -31.7235   2   8   0.0000  10.3214  40.6259 -49.4690  34.0532 -35.0608   0.00    1.8
2401    210.000   24.065181648  -74.533782627   -31.4785   2   8   0.0000  64.9425  74.0007 -68.6825 -65.1872 104.0374   0.00    1.4
2401    240.000   24.065181389  -74.533782029   -31.1790   2   9   0.0000  42.0322   0.0000  43.5274  47.7696  32.5878   0.00    1.9
2401    270.000   24.065180717  -74.533781186   -30.9744   2   9 119.7692   0.0000  37.2735  26.6932  16.9072  68.0945   0.00    1.1
2401    300.000   24.065181661  -74.533780116   -30.8629   2   9   0.1160   0.1819   0.1751  -0.0497  -0.0669  -0.0670   0.00    1.9
2401    330.000   24.065181649  -74.533780912   -30.7719   2   9   0.1234   0.1365   0.1498  -0.0419  -0.0583  -0.0658   0.00    1.9
2401    360.000   24.065181460  -74.533781513   -30.6844   2   9  96.3441   0.0000  96.0937  90.1737  86.4950 105.3490   0.00    1.7
2401    390.000   24.065181436  -74.533780171   -30.7535   2   9   0.0907   0.1555   0.1237  -0.0522  -0.0490  -0.0488   0.00    1.1
2401    420.000   24.065181676  -74.533779815   -30.7737   2   9   0.0000   0.1127   0.1079   0.0618  -0.0397   0.0585   0.00    1.2
2401    450.000   24.065181871  -74.533779062   -30.8209   2   9   0.0000   0.0000  66.1930  49.6396  17.0495  92.8096   0.00    1.0
2401    480.000   24.065181972  -74.533778149   -30.9302   2   9   0.0000   0.0000  49.1296  32.1384  10.0400  74.3667   0.00    1.5
2401    510.000   24.065182111  -74.533776510   -30.9813   2   9  58.1735  49.2399  57.5357  69.9835 -36.8333  97.9182   0.00    1.4
2401    540.000   24.065182920  -74.533775412   -31.0494   2   9   0.0635   0.1265   0.0802  -0.0492  -0.0340  -0.0319   0.00    1.1
2401    570.000   24.065183811  -74.533774981   -31.0566   2   9   0.1268   0.1530   0.1411  -0.0710   0.0915   0.1203   0.00    1.5
2401    600.000   24.065184516  -74.533775088   -31.1177   2   9  69.2538   0.0000   0.0000  76.5663 -26.6453 -46.6570   0.00    2.0
2401    630.000   24.065185104  -74.533774419   -31.1392   2   9  78.6951  53.5883  27.2109 -51.0349  64.8913  13.0888   0.00    2.4
2401    660.000   24.065185479  -74.533774387   -31.1701   2   9   0.0499   0.1101   0.0618  -0.0451  -0.0273  -0.0242   0.00    2.5
2401    690.000   24.065186020  -74.533775050   -31.1563   2   9   0.0413   0.0204   0.0000  -0.0615   0.0632  -0.0844   0.00    2.4
2401    720.000   24.065186357  -74.533775273   -31.1817   2   9  99.7138   0.0000   0.0000  70.5008 -38.3431 -112.7151   0.00    2.0
2401    750.000   24.065186482  -74.533775466   -31.2148   2   9   0.0000  41.9301   0.0000  90.0777 -82.9833 -53.6016   0.00    1.8
2401    780.000   24.065186954  -74.533775656   -31.2435   2   9   0.0000  36.3519  52.7435 -80.6585  51.9393 -33.4954   0.00    1.6
2401    810.000   24.065187170  -74.533775565   -31.2867   2   9  65.2089   0.0000   0.0000  93.7599 -10.9655  29.3949   0.00    1.5
2401    840.000   24.065187278  -74.533775028   -31.3632   2   9   0.0000   0.0000   0.0000 -68.8862  26.6403 -97.6650   0.00    1.4
2401    870.000   24.065187222  -74.533774985   -31.4183   2   9  75.7136 113.3620   0.0000 101.7030 -90.2617 -96.5447   0.00    1.1
2401    900.000   24.065187206  -74.533775162   -31.4538   2   9   0.0339   0.0866   0.0425  -0.0371  -0.0191  -0.0158   0.00    1.1
2401    930.000   24.065187342  -74.533775764   -31.4845   2   9   0.1830   0.1466   0.0000  -0.0589  -0.0115  -0.0739   0.00    1.6
2401    960.000   24.065187340  -74.533776163   -31.4854   2   9   0.0000   6.9917 105.7136 -120.5965  35.0019 108.0990   0.00    1.4
2401    990.000   24.065187535  -74.533776858   -31.5138   2   9   0.0301   0.0798   0.0383  -0.0345  -0.0170  -0.0140   0.00    1.1
2401   1020.000   24.065187643  -74.533777571   -31.5371   2   9   0.0351   0.1131   0.0387  -0.0448   0.0758  -0.0313   0.00    1.3
2401   1050.000   24.065187656  -74.533778247   -31.5534   2   9  41.5693 105.1871   0.0000  43.0343 -84.0510  84.8810   0.00    1.7
2401   1080.000   24.065187720  -74.533778599   -31.5886   2   9   0.0270   0.0737   0.0351  -0.0321  -0.0152  -0.0126   0.00    2.0
2401   1110.000   24.065187791  -74.533779033   -31.6350   2   9   0.0857   0.0000   0.1016   0.0987   0.0713   0.0990   0.00    1.8
2401   1140.000   24.065187836  -74.533779031   -31.6878   2   9 106.8604  35.7878   0.0000 -75.0032 -45.1467  23.1214   0.00    1.5
2401   1170.000   24.065187962  -74.533779353   -31.7246   2   9   0.0244   0.0684   0.0327  -0.0300  -0.0135  -0.0115   0.00    1.2
2401   1200.000   24.065188149  -74.533780056   -31.7588   2   9   0.0000   0.0000   0.1177   0.0640   0.0590   0.1204   0.00    1.0
2401   1230.000   24.065188160  -74.533780676   -31.7908   2   9  27.1738   0.0000   0.0000 -27.3944 110.1714 -102.6937   0.00    1.2
2401   1260.000   24.065188323  -74.533781848   -31.7999   2   9   0.0000   0.0000  35.1082  66.6802 -92.3482  72.1895   0.00    1.2
2401   1290.000   24.065188483  -74.533782984   -31.8076   2  10  62.4342   0.0000  13.1102  -9.2234 -57.4841  77.7694   0.00    1.0
2401   1320.000   24.065188644  -74.533784054   -31.8476   2  10  95.2507   0.0000   0.0000 -43.4436 -85.4076 -28.9468   0.00    1.0
2401   1350.000   24.065188708  -74.533784852   -31.8883   2  10   0.0000   0.0000   0.0000 -118.9566 -110.6028 -89.9324   0.00    1.1
2401   1380.000   24.065188710  -74.533785593   -31.9040   2  10   0.0000  45.0775  35.2395 -59.8735 -45.0616 -44.6104   0.00    1.2
2401   1410.000   24.065188610  -74.533785739   -31.9201   2  10   0.0000   0.0000  43.0976  29.3701  56.7705 -49.3276   0.00    1.4
2401   1440.000   24.065188442  -74.533785924   -31.9318   2  10   0.0000  79.1807   0.0000 -90.3558  89.3400 -97.3601   0.00    1.5
2401   1470.000   24.065188261  -74.533786266   -31.9094   2  10   0.0000  22.6166   0.0000  27.1198 -38.5998 -118.4692   0.00    1.4
2401   1500.000   24.065188072  -74.533786696   -31.9034   2  10   0.0000  21.7835   0.0000 -50.7002 -14.0388 -39.1459   0.00    1.1
2401   1530.000   24.065187864  -74.533787455   -31.9101   2  10 116.6857   0.0000   0.0000 114.9650  36.1604 -62.3376   0.00    1.2
2401   1560.000   24.065187612  -74.533788304   -31.9087   2  10  51.0157  88.4009  20.1488 -30.4511 -52.3404  50.3190   0.00    1.2
2401   1590.000   24.065187423  -74.533789479   -31.9087   2  10   0.0167   0.0494   0.0250  -0.0221  -0.0073  -0.0091   0.00    1.0
2401   1620.000   24.065187279  -74.533790658   -31.9062   2  10   0.1844   0.1144   0.0977   0.0142   0.0726   0.1226   0.00    1.1
2401   1650.000   24.065187209  -74.533791940   -31.9005   2  10  61.9044   0.0000  20.1912 -58.1959 -25.7211  62.2894   0.00    1.1
2401   1680.000   24.065187104  -74.533793119   -31.8791   2  10   0.0156   0.0463   0.0242  -0.0208  -0.0061  -0.0089   0.00    1.4
2401   1710.000   24.065186924  -74.533793793   -31.8673   2  10   0.1192   0.1044   0.0585   0.1149   0.0558   0.0802   0.00    1.7
2401   1740.000   24.065186795  -74.533794359   -31.8636   2  10  89.3827   0.0000  53.0650  59.5038  53.5657  61.6586   0.00    1.8
2401   1770.000   24.065186701  -74.533795003   -31.8635   2  10   0.0148   0.0434   0.0235  -0.0195  -0.0048  -0.0085   0.00    1.4
2401   1800.000   24.065186617  -74.533795889   -31.8556   2  10   0.0531   0.0000   0.0828   0.0184   0.0297   0.0712   0.00    1.0
2401   1830.000   24.065186526  -74.533796690   -31.8611   2  10   0.0000   0.0000   0.0000 -85.1440 -47.6143 -70.5137   0.00    1.0
2401   1860.000   24.065186464  -74.533797735   -31.8537   2  10   0.0000  26.6596   0.0000 -145.1869 -63.1142 -110.2070   0.00    1.1
2401   1890.000   24.065186361  -74.533798594   -31.8417   2  10 131.9145  93.5668  62.6299 -66.4817  13.0567  79.5193   0.00    1.0
2401   1920.000   24.065186244  -74.533799465   -31.8329   2  10   0.0134   0.0391   0.0225  -0.0176  -0.0027  -0.0081   0.00    1.1
2401   1950.000   24.065186154  -74.533800450   -31.8266   2  10   0.0894   0.1560   0.0000  -0.0881  -0.0071  -0.0962   0.00    1.5
2401   1980.000   24.065186052  -74.533801204   -31.8205   2  10 179.0691 117.2453 112.0837 121.8181 115.2150 132.6152   0.00    1.9
2401   2010.000   24.065185956  -74.533801854   -31.8188   2  10   0.0128   0.0368   0.0220  -0.0167  -0.0005  -0.0080   0.00    2.1
2401   2040.000   24.065185906  -74.533802452   -31.8105   2  10   0.0000   0.0000   0.0000  -0.0462  -0.0901  -0.0741   0.00    1.7
2401   2070.000   24.065185897  -74.533803231   -31.7884   2  10  83.1109   0.0000   0.0000 -81.0236 -68.6978 -88.7053   0.00    1.0
2401   2100.000   24.065185930  -74.533804008   -31.7654   2  10   0.0000 140.0546  74.2396 -115.9940  82.3361  32.2126   0.00    1.7
2401   2130.000   24.065185987  -74.533804884   -31.7366   2  10   0.0120   0.0340   0.0215  -0.0154   0.0027  -0.0077   0.00    2.5
2401   2160.000   24.065185976  -74.533805401   -31.7297   2  10   0.0000   0.0000   0.0648  -0.1044  -0.0640  -0.0382   0.00    2.1
2401   2190.000   24.065185916  -74.533805771   -31.7405   2  10  90.3616 125.5011   0.0000 -73.9491 -48.9915 -93.9565   0.00    1.6
2401   2220.000   24.065185856  -74.533806211   -31.7442   2  10   0.0114   0.0321   0.0212  -0.0146   0.0037  -0.0076   0.00    1.1
2401   2250.000   24.065185844  -74.533806384   -31.7714   2  10   0.0261   0.0000   0.0639  -0.1532   0.0907  -0.0480   0.00    1.4
2401   2280.000   24.065185825  -74.533806495   -31.7849   2  10   0.0000   0.0000  13.3098 -19.5941 -44.1597  38.4723   0.00    1.4
2401   2310.000   24.065185788  -74.533806367   -31.8075   2  10 106.6189  91.2656  32.4398 102.2053  53.1589  68.4987   0.00    1.0
2401   2340.000   24.065185759  -74.533806327   -31.8312   2  10   0.0108   0.0298   0.0207  -0.0136   0.0043  -0.0074   0.00    1.3
2401   2370.000   24.065185773  -74.533806270   -31.8414   2  10   0.0000   0.0000   0.0000  -0.0593  -0.0934  -0.1205   0.00    1.7
2401   2400.000   24.065185737  -74.533806300   -31.8413   2  10  69.1303 104.9965  54.7033  76.1507  97.1401  32.6689   0.00    1.2
2401   2430.000   24.065185690  -74.533806361   -31.8528   2  10   0.0103   0.0281   0.0205  -0.0129   0.0046  -0.0072   0.00    1.3
2401   2460.000   24.065185610  -74.533806500   -31.8727   2  10   0.1083   0.0000   0.0366   0.0402  -0.0323  -0.0168   0.00    1.8
2401   2490.000   24.065184957  -74.533804294   -32.0454   2   9  58.9307   0.0000   0.0000  37.6112 -76.1508 -31.7474   0.00    1.2
2401   2520.000   24.065184476  -74.533802303   -32.0802   2   9  61.2728 158.5759  86.6312  44.1962 112.9230  82.6602   0.00    1.5
2401   2550.000   24.065184057  -74.533800593   -32.1079   2   9   0.0100   0.0266   0.0217  -0.0123  -0.0018  -0.0060   0.00    1.4
2401   2580.000   24.065183727  -74.533799170   -32.1215   2   9   0.0584   0.0916   0.0372  -0.0829  -0.0377   0.0409   0.00    1.1
2401   2610.000   24.065183341  -74.533797780   -32.1246   2   9   0.0000  28.2006   0.0000 -90.7695 112.2455  74.1797   0.00    1.2
2401   2640.000   24.065183008  -74.533796601   -32.1432   2   9 211.1479   0.0000   0.0000  70.2098 -66.1174 -129.0280   0.00    1.1
2401   2670.000   24.065182747  -74.533795559   -32.1608   2   9   0.0096   0.0252   0.0213  -0.0117  -0.0014  -0.0060   0.00    1.1
2401   2700.000   24.065182503  -74.533794523   -32.1523   2   9   0.0000   0.1326   0.0000   0.0398  -0.1596  -0.0937   0.00    1.2
2401   2730.000   24.065182299  -74.533793607   -32.1366   2   9  79.3157  51.4777   0.0000  71.2777 -64.3319  59.4985   0.00    1.4
2401   2760.000   24.065182151  -74.533792671   -32.1413   2   9   0.0093   0.0241   0.0211  -0.0113   0.0002  -0.0058   0.00    1.7
2401   2790.000   24.065181994  -74.533791787   -32.1355   2   9   0.1244   0.0000   0.0552  -0.0622  -0.0577  -0.0866   0.00    1.9
2401   2820.000   24.065181715  -74.533790771   -32.1371   2   9  73.5527  75.3358   0.0000  70.0731 -57.1592 -97.6061   0.00    1.7
2401   2850.000   24.065181490  -74.533789903   -32.1417   2   9   0.0093   0.0231   0.0208  -0.0108   0.0018  -0.0059   0.00    1.5
2401   2880.000   24.065181250  -74.533789049   -32.1313   2   9   0.0393   0.0000   0.0000  -0.0824   0.0453  -0.1666   0.00    1.3
2401   2910.000   24.065181108  -74.533788346   -32.1123   2   9 141.0052   0.0000  85.5399 102.4656  84.8678  81.8967   0.00    1.0
2401   2940.000   24.065180909  -74.533787611   -32.0980   2   9   0.0089   0.0222   0.0206  -0.0103   0.0025  -0.0055   0.00    1.4
2401   2970.000   24.065180683  -74.533786794   -32.0928   2   9   0.0927   0.0000   0.0000   0.0715   0.0714   0.0910   0.00    1.8
2401   3000.000   24.065180453  -74.533785932   -32.0731   2   9 121.5733  20.5541  27.0702 122.7943  44.1430 -86.3659   0.00    2.4
2401   3030.000   24.065180272  -74.533785173   -32.0525   2   9   0.0086   0.0212   0.0204  -0.0100   0.0033  -0.0053   0.00    2.8
2401   3060.000   24.065179960  -74.533781489   -31.9734   1   9   0.0834   0.1078   0.0000   0.0374  -0.0550  -0.1361   0.00    3.2
2401   3090.000   24.065179846  -74.533783926   -31.9900   2   9 161.9534 111.0030  33.9055  58.4627 -118.5649 -40.2159   0.00    2.9
2401   3120.000   24.065179687  -74.533783421   -31.9646   2   9   0.0086   0.0203   0.0201  -0.0095   0.0037  -0.0054   0.00    2.3
2401   3150.000   24.065179556  -74.533783006   -31.9196   2   9   0.0000   0.0000   0.1008   0.0221   0.0873   0.1808   0.00    1.7
2401   3180.000   24.065179477  -74.533782743   -31.8773   2   9   0.0000   0.0000 102.5059 -145.4803 136.7921 153.2363   0.00    1.2
2401   3210.000   24.065179413  -74.533782455   -31.8528   2   9   0.0000   0.0000   0.0000 -102.3514  65.6708 -94.4043   0.00    1.1
2401   3240.000   24.065179289  -74.533781957   -31.8289   2   9  57.2245   0.0000   0.0000 -36.6856 -78.6354 -70.1288   0.00    1.1
2401   3270.000   24.065179151  -74.533781465   -31.8227   2   9 102.0606 116.9486  66.8203  80.8527 -45.1548 -77.8734   0.00    1.0
2401   3300.000   24.065178980  -74.533780922   -31.8011   2   9   0.0079   0.0186   0.0197  -0.0087   0.0042  -0.0049   0.00    1.2
2401   3330.000   24.065178827  -74.533780425   -31.7777   2   9   0.1017   0.0000   0.0825  -0.0862   0.1309   0.1029   0.00    1.4
2401   3360.000   24.065178694  -74.533779854   -31.7676   2   9 219.2256  99.2926   0.0000  61.6745 -58.8645 -141.1045   0.00    1.7
2401   3390.000   24.065178517  -74.533779215   -31.7417   2   9   0.0078   0.0176   0.0195  -0.0085   0.0048  -0.0049   0.00    1.9
2401   3420.000   24.065178275  -74.533778546   -31.7256   2   9   0.1174   0.0000   0.0000   0.1142   0.0373  -0.0720   0.00    2.0
2401   3450.000   24.065178025  -74.533777936   -31.7286   2   9 148.5692  16.2096   0.0000 124.3367 -115.7213 -99.0885   0.00    1.9
2401   3480.000   24.065177772  -74.533777377   -31.7350   2   9   0.0079   0.0170   0.0193  -0.0081   0.0049  -0.0049   0.00    1.6
2401   3510.000   24.065177567  -74.533776889   -31.7316   2   9   0.0000   0.1075   0.0603  -0.0368   0.0649   0.0864   0.00    1.2
2401   3540.000   24.065177395  -74.533776480   -31.7139   2   9 114.4126 101.2907  42.0333  81.6619 -51.5280  31.0063   0.00    1.1
2401   3570.000   24.065177163  -74.533776063   -31.6954   2   9   0.0077   0.0163   0.0192  -0.0076   0.0052  -0.0047   0.00    1.5
2401   3600.000   24.065176886  -74.533775729   -31.6843   2   9   0.1290   0.0000   0.0570   0.1013   0.0694   0.0279   0.00    1.7
2401   3630.000   24.065176630  -74.533775486   -31.6616   2   9   0.0000   0.0000  70.4631 -85.1383 128.5230 104.6673   0.00    1.8
2401   3660.000   24.065176457  -74.533775240   -31.6360   2   9   0.0000 116.2170  75.3732 110.3391  16.3530 -75.8414   0.00    1.9
2401   3690.000   24.065176324  -74.533775088   -31.6089   2   9   0.0077   0.0155   0.0190  -0.0073   0.0053  -0.0047   0.00    1.8
2401   3720.000   24.065176248  -74.533774982   -31.5865   2   9   0.0000   0.0000   0.0270  -0.1085   0.1157   0.1324   0.00    1.7
2401   3750.000   24.065176136  -74.533774863   -31.5617   2   9 118.4760   0.0000   0.0000 -105.3685  70.1947 -60.5419   0.00    1.6
2401   3780.000   24.065176076  -74.533774797   -31.5548   2   9   0.0000  60.9013   0.0000 -77.3033 -17.5894  59.2645   0.00    1.4
2401   3810.000   24.065176047  -74.533774706   -31.5565   2   9   0.0000  24.7661  39.9781 -10.5581 -51.8004 116.3589   0.00    1.3
2401   3840.000   24.065176009  -74.533774503   -31.5515   2   9  76.9751   0.0000  27.2437 -71.7736 110.7554 -39.0496   0.00    1.3
2401   3870.000   24.065176017  -74.533774216   -31.5636   2   9   0.0075   0.0143   0.0187  -0.0069   0.0058  -0.0043   0.00    1.2
2401   3900.000   24.065175971  -74.533774003   -31.5763   2   9   0.0000   0.0753   0.0000  -0.0516   0.0244   0.0740   0.00    1.1
2401   3930.000   24.065175874  -74.533773807   -31.5772   2   9   0.0000  69.0885   0.0000  24.6799  95.6103 119.3755   0.00    1.1
2401   3960.000   24.065175728  -74.533773810   -31.6061   2   9 153.1822  81.2256  18.2691  96.6682 -73.8006 -57.4100   0.00    1.0
2401   3990.000   24.065175643  -74.533774056   -31.6240   2   9   0.0075   0.0137   0.0185  -0.0065   0.0060  -0.0043   0.00    1.0
2401   4020.000   24.065175628  -74.533774368   -31.6305   2   9   0.0000   0.0258   0.0000   0.1159   0.1103  -0.0554   0.00    1.1
2401   4050.000   24.065175749  -74.533774630   -31.6357   2   9  43.5895 121.6824  43.0297  65.3687 -103.8241 -68.9128   0.00    1.1
2401   4080.000   24.065175965  -74.533774846   -31.6453   2   9   0.0074   0.0131   0.0184  -0.0063   0.0061  -0.0041   0.00    1.1
2401   4110.000   24.065176139  -74.533774991   -31.6795   2   9   0.1465   0.0000   0.0000   0.0589  -0.1008  -0.1197   0.00    1.1
2401   4140.000   24.065176224  -74.533775196   -31.7260   2   9   0.0000   0.0000   0.0000 -104.0055  70.5564 145.8785   0.00    1.0
2401   4170.000   24.065176352  -74.533775398   -31.7651   2   9   0.0000   0.0000   0.0000  52.1513 -127.3290 -104.8242   0.00    1.2
2401   4200.000   24.065176427  -74.533775610   -31.7904   2   9  50.5104   0.0000  20.5648 -54.0492  -8.7078 -100.2808   0.00    1.3
2401   4230.000   24.065176490  -74.533775854   -31.8156   2   9  48.9043  73.7783   0.0000 -66.2121 -68.5573 -49.2742   0.00    1.4
2401   4260.000   24.065176537  -74.533776050   -31.8425   2   9   0.0073   0.0123   0.0182  -0.0059   0.0064  -0.0041   0.00    1.5
2401   4290.000   24.065176537  -74.533776224   -31.8675   2   9   0.0235   0.0000   0.0000   0.0842   0.0955  -0.0347   0.00    1.6
2401   4320.000   24.065176523  -74.533776316   -31.8833   2   9   0.0000  32.8557  63.4198 -20.6972 -71.9733 108.0943   0.00    1.6
2401   4350.000   24.065176498  -74.533776411   -31.8849   2   9   0.0000   0.0000   0.0000 -87.8831  98.9319 111.6683   0.00    1.6
2401   4380.000   24.065176492  -74.533776475   -31.9005   2   9  87.2236   0.0000  29.3614  46.5270 -120.9485 -107.0726   0.00    1.6
2401   4410.000   24.065176467  -74.533776533   -31.9148   2   9   0.0071   0.0118   0.0181  -0.0055   0.0065  -0.0036   0.00    1.5
2401   4440.000   24.065176433  -74.533776647   -31.9208   2   9   0.0000   0.0000   0.0757  -0.1070  -0.1145   0.1430   0.00    1.4
2401   4470.000   24.065176365  -74.533776730   -31.9363   2   9  64.5075   0.0000  56.8570  98.2934 -98.4375  25.9452   0.00    1.2
2401   4500.000   24.065176249  -74.533776767   -31.9345   2   9  34.9598   0.0000   0.0000 -35.8226 117.1204  64.9329   0.00    1.0
2401   4530.000   24.065176146  -74.533776797   -31.9344   2   9   0.0000  15.4808  69.3935  69.6717 119.8115 106.6717   0.00    1.1
2401   4560.000   24.065176047  -74.533776855   -31.9342   2   9  96.4025   0.0000   8.5199  58.8869  94.4916 -122.6495   0.00    1.1
2401   4590.000   24.065175951  -74.533776954   -31.9420   2   9   0.0072   0.0112   0.0180  -0.0052   0.0065  -0.0037   0.00    1.0
2401   4620.000   24.065175787  -74.533777054   -31.9496   2   9   0.0000   0.0000   0.0000   0.0111  -0.0271  -0.0638   0.00    1.0
2401   4650.000   24.065175608  -74.533777080   -31.9512   2   9  28.5665   0.0000  24.8302   7.3885  82.8994  71.6609   0.00    1.2
2401   4680.000   24.065175424  -74.533777193   -31.9432   2   9   0.0000   0.0000   0.0000  46.0771  90.3180  77.0680   0.00    1.5
2401   4710.000   24.065175315  -74.533777283   -31.9423   2   9   0.0000   0.0000   0.0000 -87.6921 137.5009  79.7570   0.00    1.8
2401   4740.000   24.065175145  -74.533777334   -31.9378   2   9  62.6491   0.0000  55.1617 -76.5447  65.2090 -21.4876   0.00    2.1
2401   4770.000   24.065174941  -74.533777359   -31.9444   2   9   0.0073   0.0106   0.0180  -0.0049   0.0068  -0.0033   0.00    2.1
2401   4800.000   24.065174773  -74.533777413   -31.9463   2   9   0.1582   0.0000   0.0589   0.0967   0.0809  -0.1240   0.00    2.1
2401   4830.000   24.065174550  -74.533777445   -31.9476   2   9 108.6251  26.6031   0.0000 -71.3262  92.4988 -105.1262   0.00    2.0
2401   4860.000   24.065174352  -74.533777414   -31.9335   2   9   0.0072   0.0104   0.0180  -0.0049   0.0068  -0.0031   0.00    1.7
2401   4890.000   24.065174154  -74.533777369   -31.9303   2   9   0.0000   0.0313   0.0000  -0.0564   0.0527   0.0766   0.00    1.5
2401   4920.000   24.065173972  -74.533777344   -31.9210   2   9   0.0000   0.0000   0.0000 -49.0658 102.6900 -32.3797   0.00    1.3
2401   4950.000   24.065173807  -74.533777351   -31.9214   2   9  56.6801  15.0747   0.0000  54.9853 -101.5651 -111.7052   0.00    1.0
2401   4980.000   24.065173634  -74.533777343   -31.9190   2   9   0.0000   0.0000   0.0000 -53.9336 111.6815  75.6545   0.00    1.2
2401   5010.000   24.065173637  -74.533777415   -31.8826   2   8   0.0000  44.9213  40.7202 -103.2887 110.0274 122.9609   0.00    1.6
2401   5040.000   24.065173511  -74.533777449   -31.8613   2   8   0.0000   0.0000   0.0000  51.0188  72.4637 100.1321   0.00    1.9
2401   5070.000   24.065173356  -74.533777533   -31.8517   2   8   0.0000   0.0000   0.0000 -70.7402  53.0967  65.5038   0.00    2.0
2401   5100.000   24.065173251  -74.533777632   -31.8522   2   8   0.0000  90.6034   0.0000 -108.8967 -30.4836  83.3576   0.00    2.0
2401   5130.000   24.065173201  -74.533777659   -31.8291   2   8   0.0000   0.0000  53.9263 -90.1031  31.9663 133.0171   0.00    1.8
2401   5160.000   24.065173064  -74.533777642   -31.8073   2   8  95.9680 103.5019  25.7523 -24.7346 -100.0684 -87.3452   0.00    1.6
2401   5190.000   24.065172924  -74.533777597   -31.7813   2   8   0.0076   0.0097   0.0202  -0.0043   0.0075   0.0044   0.00    1.2
2401   5220.000   24.065172741  -74.533777466   -31.7599   2   8   0.0193   0.1058   0.0500   0.1158   0.0693   0.0613   0.00    1.1
2401   5250.000   24.065172550  -74.533777318   -31.7317   2   8 108.6805  33.7613   0.0000  75.1194 -33.7404 -124.2697   0.00    1.4
2401   5280.000   24.065172420  -74.533777144   -31.6921   2   8   0.0077   0.0096   0.0201  -0.0040   0.0075   0.0041   0.00    1.7
2401   5310.000   24.065172216  -74.533777019   -31.6777   2   8   0.0000   0.1081   0.0322   0.0635  -0.0712   0.0602   0.00    1.9
2401   5340.000   24.065172038  -74.533776907   -31.6642   2   8  80.5766  89.8995  36.2931  88.7326 -70.4686 -115.0728   0.00    2.1
2401   5370.000   24.065171824  -74.533776836   -31.6546   2   8   0.0078   0.0094   0.0201  -0.0040   0.0077   0.0037   0.00    2.4
2401   5400.000   24.065171596  -74.533776688   -31.6379   2   8   0.0000   0.0000   0.0671   0.0674   0.0982   0.0368   0.00    2.7
2401   5430.000   24.065171399  -74.533776559   -31.6243   2   8  62.1099 112.6998  76.3147  82.4287 -138.2445 -60.5501   0.00    3.0
2401   5460.000   24.065171237  -74.533776736   -31.7772   1   8   0.0070   0.0059   0.0193   0.0008   0.0073   0.0043   0.00    3.1
2401   5490.000   24.065170999  -74.533776280   -31.5817   2   8   0.0904   0.0000   0.0111   0.1009  -0.0934  -0.0606   0.00    3.0
2401   5520.000   24.065170814  -74.533776123   -31.5698   2   8  66.4958 128.1485   0.0000  80.7090 -122.2311 -73.4976   0.00    2.7
2401   5550.000   24.065170690  -74.533775997   -31.5491   2   8   0.0077   0.0091   0.0200  -0.0040   0.0079   0.0038   0.00    2.4
2401   5580.000   24.065170554  -74.533775869   -31.5152   2   8   0.0712   0.0730   0.1217   0.1100  -0.0736  -0.1080   0.00    2.1
2401   5610.000   24.065170457  -74.533775747   -31.4641   2   8   0.0000 120.4616  58.0842  44.2015 -83.8540 -33.1064   0.00    1.6
2401   5640.000   24.065170340  -74.533775629   -31.4237   2   8   0.0077   0.0090   0.0200  -0.0039   0.0081   0.0037   0.00    1.2
2401   5670.000   24.065170187  -74.533775570   -31.3992   2   8   0.0000   0.0000   0.0000  -0.0740   0.0835   0.0577   0.00    1.1
2401   5700.000   24.065170050  -74.533775496   -31.3849   2   8  28.1014  43.9502   0.0000  32.6222  70.7939  37.7893   0.00    1.4
2401   5730.000   24.065169920  -74.533775441   -31.3711   2   8  63.4437  35.4982  76.7005  43.8631 -40.1000 -68.1119   0.00    1.8
2401   5760.000   24.065169854  -74.533775403   -31.3453   2   8   0.0076   0.0088   0.0199  -0.0038   0.0081   0.0035   0.00    2.3
2401   5790.000   24.065169808  -74.533775320   -31.3272   2   8   0.0000   0.0605   0.0790  -0.0906   0.0691   0.1463   0.00    2.4
2401   5820.000   24.065169743  -74.533775277   -31.3140   2   8   0.0000  61.1764  53.1708 110.8456 -53.6538  32.8648   0.00    2.4
2401   5850.000   24.065169720  -74.533775225   -31.2887   2   8   0.0077   0.0088   0.0198  -0.0036   0.0082   0.0032   0.00    2.3
2401   5880.000   24.065169608  -74.533775173   -31.2621   2   8   0.0000   0.0000   0.0544  -0.0477   0.0128   0.1045   0.00    2.2
2401   5910.000   24.065169561  -74.533775099   -31.2502   2   8   0.0000   0.0000   0.0000  79.0798  97.5835 -49.2369   0.00    2.0
2401   5940.000   24.065169505  -74.533775001   -31.2210   2   8  35.9959 117.7346   0.0000  66.7995 -31.3783  31.3429   0.00    1.9
2401   5970.000   24.065169462  -74.533774885   -31.2075   2   8   0.0077   0.0087   0.0198  -0.0037   0.0083   0.0028   0.00    1.7
2401   6000.000   24.065169396  -74.533774787   -31.1874   2   8   0.0406   0.0510   0.0571  -0.0639   0.0784  -0.0526   0.00    1.5
2401   6030.000   24.065169403  -74.533774680   -31.1559   2   8   0.0000   0.0000   0.0000 -57.0068 -64.5058 -58.0102   0.00    1.4
2401   6060.000   24.065169370  -74.533774581   -31.1450   2   8  21.9720 114.5762   0.0000 -76.3594 -146.7376 -52.3506   0.00    1.2
2401   6090.000   24.065169274  -74.533774418   -31.1210   2   8   0.0080   0.0087   0.0214  -0.0038   0.0086  -0.0033   0.00    1.0
2401   6120.000   24.065169148  -74.533774239   -31.1125   2   8   0.0000   0.0540   0.0000  -0.0878   0.0400  -0.0468   0.00    1.0
2401   6150.000   24.065169048  -74.533774118   -31.1206   2   8  64.5140  72.5085  33.8426 -33.8352 -55.2711  15.8098   0.00    1.0
2401   6180.000   24.065168942  -74.533774021   -31.1311   2   8   0.0078   0.0084   0.0187  -0.0034   0.0070   0.0016   0.00    1.0
2401   6210.000   24.065168930  -74.533773860   -31.1123   2   8   0.0000   0.0995   0.0000  -0.0774  -0.0524   0.0360   0.00    1.0
2401   6240.000   24.065168901  -74.533773716   -31.1051   2   8  55.9286  70.6426   0.0000 -18.0126 -29.4089 -48.3199   0.00    1.0
2401   6270.000   24.065168897  -74.533773600   -31.0945   2   8   0.0079   0.0083   0.0181  -0.0034   0.0068   0.0013   0.00    1.0
2401   6300.000   24.065168818  -74.533773474   -31.0883   2   8   0.0550   0.0000   0.0000  -0.0893   0.0455   0.0563   0.00    1.0
2401   6330.000   24.065168810  -74.533773367   -31.0778   2   8   0.0000   0.0000  70.0821 -63.0645 -56.0139 -43.8480   0.00    1.1
2401   6360.000   24.065168785  -74.533773262   -31.0630   2   8  57.4043  96.4051  61.1926  67.9466 -85.4792  73.2299   0.00    1.1
2401   6390.000   24.065168762  -74.533773170   -31.0469   2   8   0.0079   0.0082   0.0178  -0.0035   0.0067   0.0010   0.00    1.1
2401   6420.000   24.065168652  -74.533773117   -31.0342   2   8   0.0535   0.0999   0.0239   0.0322  -0.0723  -0.0734   0.00    1.1
2401   6450.000   24.065168559  -74.533773044   -31.0241   2   8  78.0484   0.0000   0.0000 -91.6226 -74.4260 -48.2076   0.00    1.0
2401   6480.000   24.065168534  -74.533772959   -31.0193   2   8   0.0079   0.0082   0.0176  -0.0037   0.0066  -0.0005   0.00    1.0
2401   6510.000   24.065168472  -74.533772877   -31.0002   2   8   0.0893   0.0094   0.0625  -0.0184   0.0516   0.0728   0.00    1.0
2401   6540.000   24.065168483  -74.533772779   -30.9935   2   8  22.6221  35.1513  73.1562  51.5540 -80.7172 -16.8377   0.00    1.1
2401   6570.000   24.065168431  -74.533772721   -30.9978   2   8   0.0079   0.0081   0.0175  -0.0037   0.0066  -0.0017   0.00    1.2
2401   6600.000   24.065168353  -74.533772683   -30.9960   2   8   0.0000   0.0087   0.0649   0.0363  -0.0674   0.0948   0.00    1.2
2401   6630.000   24.065168384  -74.533772619   -30.9868   2   8   0.0000   0.0000  56.0421 -80.9175  33.9294  90.7688   0.00    1.3
2401   6660.000   24.065168474  -74.533772560   -30.9874   2   8  33.2658   0.0000  59.0745 -30.6695 -75.3037  64.4136   0.00    1.2
2401   6690.000   24.065168489  -74.533772574   -30.9845   2   8   0.0000  84.7226  10.5876  80.8711 -27.8888  65.2094   0.00    1.0
2401   6720.000   24.065168457  -74.533772634   -30.9909   2   8   0.0080   0.0081   0.0174  -0.0038   0.0068  -0.0022   0.00    1.1
2401   6750.000   24.065168454  -74.533772684   -30.9875   2   8   0.0000   0.0000   0.0000  -0.0923  -0.0410   0.0626   0.00    1.2
2401   6780.000   24.065168496  -74.533772656   -30.9857   2   8  62.8787   0.0000   0.0000  75.7502 -41.5787 -67.4230   0.00    1.1
2401   6810.000   24.065168498  -74.533772708   -30.9897   2   8   0.0000   0.0000   7.3380 -51.6890  17.0019  43.0395   0.00    1.0
2401   6840.000   24.065168557  -74.533772721   -30.9900   2   8  80.5026  65.1001  54.0244  44.5650  39.6429  26.3090   0.00    1.1
2401   6870.000   24.065168628  -74.533772777   -30.9783   2   8   0.0080   0.0081   0.0172  -0.0039   0.0067  -0.0030   0.00    1.2
2401   6900.000   24.065168629  -74.533772879   -30.9767   2   8   0.0000   0.0000   0.0000  -0.0451   0.0842   0.0265   0.00    1.3
2401   6930.000   24.065168511  -74.533773004   -30.9718   2   8  46.6002  80.0788  68.6477  35.5725 -81.7667 -69.7475   0.00    1.5
2401   6960.000   24.065168443  -74.533773107   -30.9635   2   8   0.0081   0.0082   0.0172  -0.0039   0.0067  -0.0033   0.00    1.6
2401   6990.000   24.065168333  -74.533773216   -30.9440   2   8   0.0603   0.0000   0.0000   0.0589   0.1230   0.0698   0.00    1.7
2401   7020.000   24.065168400  -74.533773302   -30.9307   2   8   0.0000   0.0000   0.0000 -51.3787  32.0146  21.0060   0.00    1.8
2401   7050.000   24.065168443  -74.533773350   -30.9216   2   8   0.0000   0.0000  54.7357  55.0302 -47.7420 -26.1297   0.00    1.8
2401   7080.000   24.065168491  -74.533773356   -30.9174   2   8   0.0000   0.0000   0.0000 -70.3430 -63.1967 -46.5364   0.00    1.8
2401   7110.000   24.065168570  -74.533773476   -30.9254   2   8  51.6304   0.0000   0.0000  46.7948  25.1986 -56.7856   0.00    1.8
2401   7140.000   24.065168591  -74.533773605   -30.9210   2   8  68.9462   0.0000  24.2942 -54.8130 -63.2718 -48.9761   0.00    1.7
2401   7170.000   24.065168641  -74.533773639   -30.9050   2   8   0.0000   0.0000   0.0000 -25.3910  40.5953  46.6482   0.00    1.6
2401   7200.000   24.065168668  -74.533773645   -30.8864   2   8   0.0000   0.0000  38.3390  67.2152 105.0270  56.0036   0.00    1.5
2401   7230.000   24.065168740  -74.533773678   -30.8812   2   8  69.1054  55.4734  26.7157  92.1706  85.9778   9.1612   0.00    1.3
2401   7260.000   24.065168849  -74.533773769   -30.8928   2   8   0.0082   0.0081   0.0170  -0.0042   0.0068  -0.0045   0.00    1.2
2401   7290.000   24.065168972  -74.533773791   -30.8996   2   8   0.0238   0.0000   0.0482   0.1102   0.0493   0.0807   0.00    1.1
2401   7320.000   24.065169069  -74.533773820   -30.9065   2   9   0.0000  81.3919  63.9282 -61.1904 -106.4977  71.2273   0.00    1.0
2401   7350.000   24.065169187  -74.533773848   -30.9130   2   9   0.0080   0.0081   0.0166  -0.0044   0.0068  -0.0054   0.00    1.0
2401   7380.000   24.065169311  -74.533773886   -30.9234   2   9   0.0000   0.0296   0.0000  -0.0396  -0.0656  -0.0263   0.00    1.0
2401   7410.000   24.065169399  -74.533773983   -30.9497   2   9  35.6064  66.0023  28.8528  60.8997 -20.9963  80.8731   0.00    1.0
2401   7440.000   24.065169517  -74.533774059   -30.9658   2   9   0.0080   0.0081   0.0165  -0.0044   0.0069  -0.0061   0.00    1.1
2401   7470.000   24.065169617  -74.533774149   -30.9769   2   9   0.0577   0.0646   0.0676  -0.0481   0.0479   0.0394   0.00    1.1
2401   7500.000   24.065169783  -74.533774235   -31.0122   2   9   0.0000   0.0000   9.6675  80.0745 -72.2387  23.4013   0.00    1.2
2401   7530.000   24.065169876  -74.533774440   -31.0266   2   9   0.0000  44.6113  73.1128  96.2805  76.9939  95.3200   0.00    1.3
2401   7560.000   24.065169987  -74.533774628   -31.0515   2   9   0.0000   0.0000   0.0000 -47.5929  35.6970 -58.3302   0.00    1.2
2401   7590.000   24.065170090  -74.533774850   -31.0682   2   9  19.9963   0.0000   0.0000  16.6704  46.6151 -72.5702   0.00    1.2
2401   7620.000   24.065170204  -74.533775102   -31.1002   2   9   0.0000  72.2056   0.0000  66.6155  69.2592  31.1431   0.00    1.1
2401   7650.000   24.065170337  -74.533775341   -31.1459   2   9  73.9847   0.0000   0.0000 -44.5895  31.7846 -75.3458   0.00    1.1
2401   7680.000   24.065170484  -74.533775511   -31.1840   2   9  58.7027  80.8091   0.0000  83.2765  83.4867  78.9023   0.00    1.0
2401   7710.000   24.065170611  -74.533775696   -31.2113   2   9   0.0079   0.0081   0.0165  -0.0047   0.0070  -0.0068   0.00    1.1
2401   7740.000   24.065170759  -74.533775876   -31.2444   2   9   0.0373   0.0000   0.0952  -0.0572  -0.0677  -0.0250   0.00    1.1
2401   7770.000   24.065170993  -74.533776002   -31.2701   2   9   0.0000   0.0000  49.2967 -56.4586 -73.2066 -15.9360   0.00    1.1
2401   7800.000   24.065171265  -74.533776179   -31.2744   2   8   0.0000   0.0000   0.0000 -48.0842 -59.0825  48.4189   0.00    1.2
2401   7830.000   24.065171472  -74.533776278   -31.2921   2   8   0.0000   0.0000  49.0590  13.6025 -88.4702 -47.3453   0.00    1.2
2401   7860.000   24.065171685  -74.533776343   -31.3195   2   8  91.8104  61.5968   0.0000 -47.1728  50.8124  23.5622   0.00    1.1
2401   7890.000   24.065171924  -74.533776409   -31.3576   2   8   0.0081   0.0081   0.0172  -0.0049   0.0069  -0.0069   0.00    1.1
2401   7920.000   24.065172100  -74.533776462   -31.3640   2   8   0.0792   0.0175   0.0554  -0.0536  -0.0769   0.0592   0.00    1.1
2401   7950.000   24.065172344  -74.533776558   -31.3971   2   8   0.0000  61.6283   0.0000  27.0767  62.9206  70.1764   0.00    1.0
2401   7980.000   24.065172570  -74.533776670   -31.4240   2   8  50.1419  29.9228   0.0000 -33.9608  77.5771  41.4590   0.00    1.1
2401   8010.000   24.065172769  -74.533776778   -31.4434   2   8  51.7334  81.6477   0.0000 -57.6565 -88.9136 -44.4152   0.00    1.1
2401   8040.000   24.065172946  -74.533776909   -31.4616   2   8   0.0081   0.0081   0.0174  -0.0049   0.0071  -0.0073   0.00    1.0
2401   8070.000   24.065173127  -74.533777049   -31.4759   2   8   0.1119   0.0000   0.0000  -0.0606   0.0759   0.0673   0.00    1.3
2401   8100.000   24.065173310  -74.533777175   -31.4973   2   8  19.9772   0.0000  29.9845 -52.7001 -56.0127 -19.7928   0.00    1.3
2401   8130.000   24.065173559  -74.533777305   -31.5222   2   8  15.3624   0.0000   0.0000 -63.5415  39.4928 -68.3083   0.00    1.2
2401   8160.000   24.065173794  -74.533777437   -31.5343   2   8   0.0000   0.0000  38.9925 -53.5662 -72.9757 -26.2721   0.00    1.2
2401   8190.000   24.065174032  -74.533777596   -31.5518   2   8   0.0000  47.9118  61.3664  30.2252 -52.6500  52.6620   0.00    1.2
2401   8220.000   24.065174287  -74.533777748   -31.5745   2   8  36.7404  60.5893   0.0000  42.3764  13.8555   9.0926   0.00    1.1
2401   8250.000   24.065174564  -74.533777917   -31.5940   2   8   0.0082   0.0081   0.0177  -0.0050   0.0073  -0.0078   0.00    1.0
2401   8280.000   24.065174825  -74.533778040   -31.6147   2   8   0.0000   0.0000   0.0000  -0.0170   0.0468  -0.0284   0.00    1.0
2401   8310.000   24.065175119  -74.533778246   -31.6288   2   8  29.4271  37.3348   0.0000  63.3432  69.7650  35.0318   0.00    1.1
2401   8340.000   24.065175358  -74.533778425   -31.6562   2   8  11.0075   0.0000  27.4153 -101.1040 -50.4215 -65.7736   0.00    1.3
2401   8370.000   24.065175580  -74.533778549   -31.6737   2   8  88.8681  55.7607  50.3902 -18.3133 -33.5008  75.2864   0.00    1.5
2401   8400.000   24.065175797  -74.533778652   -31.6865   2   8   0.0083   0.0081   0.0179  -0.0052   0.0074  -0.0082   0.00    1.4
2401   8430.000   24.065176013  -74.533778788   -31.7036   2   8   0.0598   0.0000   0.1018  -0.0286   0.0469   0.0880   0.00    1.2
2401   8460.000   24.065176250  -74.533778917   -31.7312   2   8   0.0000   0.0000  51.2349 -46.5923  67.9042 -47.7416   0.00    1.0
2401   8490.000   24.065176452  -74.533779036   -31.7549   2   8   0.0000   0.0000   0.0000  55.1051  76.2369 -80.1650   0.00    1.1
2401   8520.000   24.065176617  -74.533779136   -31.7667   2   8  95.1238  63.3501  51.5313 -103.3439 -90.5554  49.7565   0.00    1.0
2401   8550.000   24.065176794  -74.533779226   -31.7856   2   8   0.0083   0.0080   0.0182  -0.0051   0.0075  -0.0086   0.00    1.2
2401   8580.000   24.065177024  -74.533779313   -31.8180   2   8   0.0000   0.0957   0.0665   0.0942   0.0491   0.0643   0.00    1.0
2401   8610.000   24.065177226  -74.533779400   -31.8511   2   8  42.4973   0.0000  70.0911 -80.1282 -64.1941  63.1969   0.00    1.2
2401   8640.000   24.065177409  -74.533779493   -31.8857   2   8   0.0084   0.0080   0.0184  -0.0052   0.0076  -0.0088   0.00    1.4
2401   8670.000   24.065177639  -74.533779621   -31.9235   2   8   0.0580   0.0968   0.0984  -0.0706  -0.0332   0.1052   0.00    1.7
2401   8700.000   24.065177773  -74.533779720   -31.9474   2   8  98.9557   0.0000   0.0000 -50.0714 -53.6485 -46.3409   0.00    1.7
2401   8730.000   24.065177982  -74.533779832   -31.9767   2   8 107.8770  74.5935  62.6023 -51.3552 -59.2071  90.0895   0.00    1.4
2401   8760.000   24.065178074  -74.533779864   -31.9870   2   8   0.0083   0.0080   0.0186  -0.0053   0.0077  -0.0091   0.00    1.1
2401   8790.000   24.065178152  -74.533779970   -31.9881   2   8   0.0170   0.0536   0.0758   0.0729   0.0585   0.0283   0.00    1.1
2401   8820.000   24.065178202  -74.533780094   -31.9809   2   8  40.8560   0.0000  14.2812 -47.3976 -59.0819  47.8177   0.00    1.5
2401   8850.000   24.065178344  -74.533780066   -32.0155   2   8   0.0000   0.0000  54.1408 -92.1852 -65.6914  51.9971   0.00    1.7
2401   8880.000   24.065178581  -74.533780023   -32.0658   2   8   0.0000   0.0000  24.1063  33.1752  36.7746  67.6875   0.00    1.5
2401   8910.000   24.065178754  -74.533779922   -32.1196   2   8  88.3102   0.0000  53.2734  46.6246  91.0645  51.1935   0.00    1.2
2401   8940.000   24.065178850  -74.533779880   -32.1573   2   8   0.0085   0.0079   0.0190  -0.0054   0.0078  -0.0094   0.00    1.0
2401   8970.000   24.065178860  -74.533779863   -32.1613   2   8   0.0000   0.0758   0.0071   0.0998   0.0708   0.0304   0.00    1.2
2401   9000.000   24.065178804  -74.533779845   -32.1259   2   8  72.2101  64.2337  65.2708  21.6574 -27.9737  76.2417   0.00    1.1
2401   9030.000   24.065178791  -74.533779808   -32.1107   2   8   0.0086   0.0079   0.0192  -0.0053   0.0078  -0.0095   0.00    1.1
2401   9060.000   24.065178891  -74.533779795   -32.1226   2   8   0.0000   0.0000   0.0000  -0.0444  -0.0905  -0.0935   0.00    1.0
2401   9090.000   24.065179030  -74.533779766   -32.1554   2   8   0.0000   0.0000  54.9946  53.8216  45.8550  33.7088   0.00    1.0
2401   9120.000   24.065179092  -74.533779643   -32.1687   2   8   0.0000   0.0000   0.0000  52.2711  83.1635 -79.3904   0.00    1.1
2401   9150.000   24.065179144  -74.533779543   -32.1811   2   8   0.0000   0.0000   0.0000  42.6201 -37.8934 -70.4339   0.00    1.3
2401   9180.000   24.065179245  -74.533779510   -32.2090   2   8  95.6906  85.6038   0.0000 108.9170  48.8604  36.4568   0.00    1.4
2401   9210.000   24.065179298  -74.533779451   -32.2245   2   9   0.0086   0.0079   0.0195  -0.0054   0.0079  -0.0099   0.00    1.0
2401   9240.000   24.065179388  -74.533779398   -32.2436   2   9   0.0000   0.0810   0.0675   0.0876   0.0661   0.0498   0.00    1.0
2401   9270.000   24.065179404  -74.533779280   -32.2409   2   9  66.9596  59.3475  43.7443  39.0129 -81.7758  60.0290   0.00    1.0
2401   9300.000   24.065179464  -74.533779222   -32.2642   2   9   0.0085   0.0079   0.0194  -0.0053   0.0077  -0.0102   0.00    1.0
2401   9330.000   24.065179525  -74.533779198   -32.2807   2   9   0.0567   0.0890   0.0000   0.0892   0.0667  -0.0664   0.00    1.0
2401   9360.000   24.065179593  -74.533779218   -32.3069   2   9   0.0000  53.7939   0.0000  20.2737  58.7143 -77.2575   0.00    1.0
2401   9390.000   24.065179623  -74.533779185   -32.3038   2   9   0.0000  62.5564   0.0000 -101.2401 -76.0110 -72.8418   0.00    1.1
2401   9420.000   24.065179653  -74.533779187   -32.3084   2   9  27.8497  94.1729   0.0000  89.6562  70.7350 -22.4547   0.00    1.1
2401   9450.000   24.065179739  -74.533779214   -32.3265   2   9   0.0086   0.0078   0.0196  -0.0054   0.0077  -0.0105   0.00    1.1
2401   9480.000   24.065179740  -74.533779180   -32.3260   2   9   0.0000   0.0000   0.0927   0.0469   0.0588   0.0582   0.00    1.2
2401   9510.000   24.065179787  -74.533779255   -32.3402   2   9   0.0000   0.0000   0.0000  66.6460  68.7868 -20.1261   0.00    1.2
2401   9540.000   24.065179862  -74.533779304   -32.3667   2   9   0.0000   0.0000   0.0000  95.1746  83.3087 -79.2525   0.00    1.2
2401   9570.000   24.065179966  -74.533779364   -32.3944   2   9   0.0000  93.7529   0.0000  31.0306  34.9983 -69.6648   0.00    1.2
2401   9600.000   24.065180121  -74.533779431   -32.4352   2   9  51.2104   0.0000  78.8897  74.6555  52.4673  81.2105   0.00    1.1
2401   9630.000   24.065180253  -74.533779506   -32.4572   2   9   0.0085   0.0077   0.0199  -0.0054   0.0076  -0.0107   0.00    1.0
2401   9660.000   24.065180393  -74.533779617   -32.4847   2   9   0.0000   0.0000   0.0357  -0.0789  -0.0540  -0.0532   0.00    1.0
2401   9690.000   24.065180570  -74.533779710   -32.5190   2  10   0.0000  48.3056   0.0000 -29.6129  56.9312 -64.9747   0.00    1.0
2401   9720.000   24.065180634  -74.533779801   -32.5340   2  10   0.0000  50.6788   0.0000  54.5748 -53.6644 -53.4686   0.00    1.0
2401   9750.000   24.065180763  -74.533779867   -32.5637   2  10   0.0000   0.0000  24.6674 -62.9779  33.7285 -31.9208   0.00    1.0
2401   9780.000   24.065180916  -74.533780010   -32.6181   2  10  38.3354 108.0339   0.0000  26.1198 -27.9941 -49.8720   0.00    1.0
2401   9810.000   24.065181088  -74.533780091   -32.6503   2  10   0.0075   0.0072   0.0175  -0.0044   0.0060  -0.0087   0.00    1.0
2401   9840.000   24.065181203  -74.533780128   -32.6797   2  10   0.0000   0.0798   0.0000  -0.1366  -0.0730  -0.0581   0.00    1.0
2401   9870.000   24.065181302  -74.533780150   -32.7113   2  10  74.2994 157.7632  40.6289 -45.2283 -95.5751  17.9114   0.00    1.0
2401   9900.000   24.065181390  -74.533780190   -32.7353   2  10   0.0074   0.0073   0.0173  -0.0044   0.0056  -0.0085   0.00    1.1
2401   9930.000   24.065181520  -74.533780289   -32.7708   2  10   0.0000   0.0000   0.0659   0.1009   0.1180   0.0312   0.00    1.1
2401   9960.000   24.065181660  -74.533780393   -32.8223   2  10  46.6225  75.1099   0.0000  63.6295  47.4241 -74.9447   0.00    1.1
2401   9990.000   24.065181801  -74.533780451   -32.8686   2  10   0.0073   0.0072   0.0172  -0.0041   0.0053  -0.0083   0.00    1.1
2401  10020.000   24.065181917  -74.533780515   -32.9040   2  10   0.1044   0.0000   0.0730   0.0150  -0.0419   0.0512   0.00    1.1
2401  10050.000   24.065182017  -74.533780509   -32.9228   2  10   0.0000  90.4306  22.1652 -53.0218 -59.0754 -76.3345   0.00    1.1
2401  10080.000   24.065182106  -74.533780519   -32.9344   2  10   0.0000   0.0000   0.0000 -73.3489  33.8531  78.8911   0.00    1.0
2401  10110.000   24.065182222  -74.533780540   -32.9622   2  10   0.0000   0.0000   0.0000 -24.8110 105.8861  -2.7403   0.00    1.0
2401  10140.000   24.065182305  -74.533780596   -32.9839   2  10  96.3789  36.9320   0.0000 -106.7079  74.3672  63.1084   0.00    1.0
2401  10170.000   24.065182401  -74.533780631   -32.9970   2  10   0.0071   0.0070   0.0172  -0.0040   0.0051  -0.0083   0.00    1.0
2401  10200.000   24.065182505  -74.533780641   -33.0180   2  10   0.0000   0.0448   0.0156   0.1443   0.0985  -0.0599   0.00    1.1
2401  10230.000   24.065182559  -74.533780630   -33.0215   2  10  47.0107  16.5210   0.0000 116.7583  68.8829 -59.2947   0.00    1.1
2401  10260.000   24.065182659  -74.533780559   -33.0365   2  10   0.0000   0.0000  71.0409 -53.0818 -86.6893  76.6491   0.00    1.1
2401  10290.000   24.065182711  -74.533780518   -33.0363   2  10   0.0000   0.0000   0.0000  81.6636  62.3200 -36.1242   0.00    1.2
2401  10320.000   24.065182729  -74.533780469   -33.0273   2  10   0.0000 100.8579   0.0000  66.3448  36.5786 -86.1604   0.00    1.1
2401  10350.000   24.065182811  -74.533780497   -33.0380   2  10   0.0000   0.0000  58.7294 112.1565  53.0996  45.0746   0.00    1.1
2401  10380.000   24.065182852  -74.533780470   -33.0364   2  10  69.5138 142.8909   0.0000  68.6657 -62.1973 -32.2854   0.00    1.1
2401  10410.000   24.065182909  -74.533780495   -33.0453   2  10   0.0070   0.0070   0.0173  -0.0038   0.0042  -0.0081   0.00    1.1
2401  10440.000   24.065182973  -74.533780509   -33.0620   2  10   0.0447   0.0000   0.0188   0.0072  -0.0275   0.0771   0.00    1.1
2401  10470.000   24.065183010  -74.533780493   -33.0800   2  10   0.0000 111.2868   0.0000 103.5277  32.3684 -68.5510   0.00    1.1
2401  10500.000   24.065183029  -74.533780462   -33.0962   2  10   0.0000   0.0000  39.7217  74.2213  43.6249  70.6827   0.00    1.0
2401  10530.000   24.065183068  -74.533780465   -33.1110   2  10  15.7170   0.0000   0.0000  53.3335  79.9202 -31.0921   0.00    1.1
2401  10560.000   24.065183052  -74.533780451   -33.1203   2  10   0.0000   0.0000   0.0000  47.4579  82.1542  63.1026   0.00    1.2
2401  10590.000   24.065183038  -74.533780386   -33.1193   2  10   0.0000  89.6405  54.2894 -64.9972 -94.4224  48.5067   0.00    1.2
2401  10620.000   24.065183044  -74.533780346   -33.1352   2  10   0.0068   0.0069   0.0174  -0.0035   0.0038  -0.0080   0.00    1.2
2401  10650.000   24.065183007  -74.533780313   -33.1303   2  10   0.0000   0.0000   0.0659   0.1144   0.0677   0.0425   0.00    1.2
2401  10680.000   24.065182999  -74.533780258   -33.1327   2  10   0.0000 106.6869   0.0000  58.3236  37.1844 -49.1020   0.00    1.2
2401  10710.000   24.065183005  -74.533780263   -33.1381   2  10  92.8776  20.2451   0.0000 -78.5165 -61.0972 -62.1930   0.00    1.2
2401  10740.000   24.065182978  -74.533780236   -33.1390   2  10   0.0067   0.0068   0.0176  -0.0034   0.0034  -0.0079   0.00    1.1
2401  10770.000   24.065182940  -74.533780147   -33.1434   2  10   0.1525   0.0000   0.0824  -0.0409  -0.0834   0.1197   0.00    1.1
2401  10800.000   24.065182903  -74.533780202   -33.1497   2   9  54.8972   0.0000  78.5152  71.9690 100.6131  93.3108   0.00    1.0
2401  10830.000   24.065182874  -74.533780210   -33.1508   2   9  54.8447  91.9173   0.0000 -91.0834 -69.0544 -32.4381   0.00    1.0
2401  10860.000   24.065182860  -74.533780197   -33.1732   2   9   0.0068   0.0069   0.0184  -0.0033   0.0010  -0.0076   0.00    1.1
2401  10890.000   24.065182822  -74.533780199   -33.1869   2   9   0.0000   0.0985   0.0337  -0.0638  -0.1305   0.0671   0.00    1.2
2401  10920.000   24.065182812  -74.533780199   -33.1979   2   9  54.4678   0.0000   0.0000  48.4089 119.9797  37.6978   0.00    1.3
2401  10950.000   24.065182804  -74.533780184   -33.2081   2   9  87.0053   0.0000  41.1557  39.1239 -39.8051  68.1201   0.00    1.3
2401  10980.000   24.065182761  -74.533780239   -33.2239   2   9   0.0000   0.0000  65.2842  93.6225  41.3040  67.7584   0.00    1.2
2401  11010.000   24.065182772  -74.533780269   -33.2583   2   9  86.8425 100.4890   0.0000 -73.1030  20.8100 -60.1946   0.00    1.1
2401  11040.000   24.065182718  -74.533780328   -33.2646   2   9   0.0066   0.0071   0.0187  -0.0031  -0.0022  -0.0076   0.00    1.0
2401  11070.000   24.065182660  -74.533780360   -33.2683   2   9   0.0000   0.1117   0.0000  -0.0636  -0.0786  -0.0750   0.00    1.1
2401  11100.000   24.065182660  -74.533780443   -33.2818   2   9   0.0000   0.0000  38.3763 -55.9750 -66.4498  56.4465   0.00    1.2
2401  11130.000   24.065182651  -74.533780425   -33.3046   2   9   0.0000   0.0000   0.0000  52.5518  76.3304 -89.6887   0.00    1.3
2401  11160.000   24.065182628  -74.533780351   -33.3219   2   9   0.0000   0.0000   0.0000  75.4370  75.4465 -82.8485   0.00    1.4
2401  11190.000   24.065182634  -74.533780333   -33.3459   2   9  71.9938   0.0000  20.2228 -41.2364  80.4258  39.7285   0.00    1.4
2401  11220.000   24.065182627  -74.533780329   -33.3591   2   9  79.1551  55.1482   0.0000 -65.7113  31.1363 -25.3293   0.00    1.5
2401  11250.000   24.065182576  -74.533780301   -33.3612   2   9   0.0065   0.0070   0.0191  -0.0028  -0.0029  -0.0075   0.00    1.6
2401  11280.000   24.065182545  -74.533780257   -33.3681   2   9   0.0000   0.0619   0.0732   0.0869   0.0953  -0.0269   0.00    1.7
2401  11310.000   24.065182520  -74.533780195   -33.3774   2   9   0.0000   0.0000  59.2631  84.2598   7.4305  67.2783   0.00    1.7
2401  11340.000   24.065182493  -74.533780157   -33.3776   2   9   0.0000  75.5831   0.0000 -94.9404 -46.0094 -62.2771   0.00    1.7
2401  11370.000   24.065182446  -74.533780082   -33.3769   2   9  34.4109   0.0000   0.0000 -46.4475  32.3782 -56.2727   0.00    1.7
2401  11400.000   24.065182434  -74.533780002   -33.3797   2   9   0.0000 101.1759   0.0000  37.3919 -66.4596 -62.0005   0.00    1.8
2401  11430.000   24.065182387  -74.533779966   -33.3727   2   9   0.0065   0.0069   0.0194  -0.0028  -0.0037  -0.0074   0.00    1.8
2401  11460.000   24.065182351  -74.533779892   -33.3747   2   9   0.0318   0.0911   0.0000  -0.0740  -0.1230  -0.0868   0.00    1.8
2401  11490.000   24.065182305  -74.533779820   -33.3683   2   9 110.2002  61.1881  26.9806  70.3410  57.8512  48.0494   0.00    1.8
2401  11520.000   24.065182294  -74.533779730   -33.3599   2   9   0.0062   0.0069   0.0195  -0.0026  -0.0037  -0.0075   0.00    1.7
2401  11550.000   24.065182238  -74.533779731   -33.3560   2   9   0.0507   0.0725   0.0000  -0.0265   0.0373  -0.1227   0.00    1.7
2401  11580.000   24.065182187  -74.533779691   -33.3438   2   9 104.6512   0.0000   0.0000 -52.6541 -62.4357  52.6010   0.00    1.7
2401  11610.000   24.065182111  -74.533779629   -33.3180   2   9   0.0063   0.0070   0.0197  -0.0028  -0.0041  -0.0072   0.00    1.7
2401  11640.000   24.065182053  -74.533779552   -33.3175   2   9   0.0000   0.0790   0.0000   0.0648  -0.0918  -0.0891   0.00    1.6
2401  11670.000   24.065181998  -74.533779500   -33.3074   2   9   0.0000   0.0000   0.0000  -3.3860  66.5931 -115.3530   0.00    1.5
2401  11700.000   24.065181935  -74.533779462   -33.3064   2   9   0.0000  74.8461  24.3545 -36.9569 -64.3985 -30.0695   0.00    1.5
2401  11730.000   24.065181890  -74.533779482   -33.2953   2   9   0.0061   0.0070   0.0198  -0.0025  -0.0044  -0.0073   0.00    1.4
2401  11760.000   24.065181848  -74.533779508   -33.2939   2   9   0.0000   0.0000   0.0000   0.0580   0.0692  -0.1058   0.00    1.4
2401  11790.000   24.065181765  -74.533779527   -33.2797   2   9   0.0000  79.6296   0.0000  44.7116 -47.4180 -88.2502   0.00    1.4
2401  11820.000   24.065181703  -74.533779520   -33.2778   2   9  63.6429   0.0000  43.8170  16.3201 -68.2891  35.8422   0.00    1.3
2401  11850.000   24.065181658  -74.533779503   -33.2718   2   9   0.0000   0.0000   0.0000 -101.9375 -42.7550 -15.2412   0.00    1.3
2401  11880.000   24.065181594  -74.533779489   -33.2666   2   9  74.4936  35.7589   0.0000 -60.7015 -81.3400 -18.1251   0.00    1.3
2401  11910.000   24.065181549  -74.533779510   -33.2575   2   9   0.0060   0.0069   0.0200  -0.0026  -0.0047  -0.0071   0.00    1.3
2401  11940.000   24.065181515  -74.533779573   -33.2520   2   9   0.1347   0.0000   0.0822  -0.1186  -0.0849   0.0695   0.00    1.3
2401  11970.000   24.065181485  -74.533779663   -33.2330   2   9   0.0000   0.0000  47.1106  57.0183 -52.2793  58.1184   0.00    1.3
2401  12000.000   24.065181440  -74.533779714   -33.2153   2   9  97.4802   0.0000  60.5172 -61.9909  61.4743  57.7234   0.00    1.2
2401  12030.000   24.065181404  -74.533779750   -33.2102   2   9   0.0061   0.0069   0.0201  -0.0022  -0.0048  -0.0069   0.00    1.2
2401  12060.000   24.065181419  -74.533779811   -33.2062   2   9   0.0000   0.0508   0.0696  -0.0351  -0.0923  -0.0320   0.00    1.1
2401  12090.000   24.065181400  -74.533779890   -33.1970   2   9   0.0000  10.8379   0.0000 -64.9694  22.3801 -35.7673   0.00    1.1
2401  12120.000   24.065181383  -74.533779947   -33.1860   2   9   0.0000   0.0000  22.5983  42.4389  97.7916  41.2827   0.00    1.0
2401  12150.000   24.065181400  -74.533780050   -33.1828   2   9   0.0000   0.0000   0.0000  76.2715  95.5083 -80.5293   0.00    1.0
2401  12180.000   24.065181392  -74.533780123   -33.1713   2   9 119.4879   0.0000  56.8776 -15.1933  64.6983  86.0781   0.00    1.1
2401  12210.000   24.065181434  -74.533780166   -33.1747   2   9   0.0059   0.0070   0.0202  -0.0025  -0.0052  -0.0067   0.00    1.1
2401  12240.000   24.065181430  -74.533780205   -33.1706   2   9   0.0000   0.0000   0.1142   0.0389   0.0872   0.1318   0.00    1.2
2401  12270.000   24.065181444  -74.533780271   -33.1753   2   9  44.7204   0.0000   0.0000   3.2056 -50.8238 -63.3785   0.00    1.3
2401  12300.000   24.065181464  -74.533780286   -33.1849   2   9  42.6160   0.0000   0.0000 -74.3763 -101.5950  34.2591   0.00    1.4
2401  12330.000   24.065181458  -74.533780232   -33.1780   2   9 143.4263   0.0000  44.0700  89.9999  34.3729  88.2252   0.00    1.4
2401  12360.000   24.065181485  -74.533780178   -33.1940   2   9   0.0059   0.0069   0.0202  -0.0024  -0.0051  -0.0065   0.00    1.5
2401  12390.000   24.065181519  -74.533780149   -33.1924   2   9   0.0000   0.0000   0.0767  -0.0397  -0.0930   0.1176   0.00    1.5
2401  12420.000   24.065181526  -74.533780153   -33.2192   2   9 101.4540   0.0000  84.3253  74.3932  57.0089  95.8356   0.00    1.5
2401  12450.000   24.065181547  -74.533780260   -33.2004   2   9   0.0060   0.0070   0.0202  -0.0024  -0.0052  -0.0063   0.00    1.5
2401  12480.000   24.065181601  -74.533779976   -33.3095   2   8   0.0000   0.0000   0.0000   0.0516  -0.0393  -0.1009   0.00    1.2
2401  12510.000   24.065181601  -74.533780014   -33.2948   2   8   0.0000  56.7908  54.7182  15.8631 -37.9970  81.0275   0.00    1.3
2401  12540.000   24.065181523  -74.533780073   -33.2633   2   8   0.0059   0.0082   0.0255  -0.0018  -0.0097  -0.0071   0.00    1.3
2401  12570.000   24.065181481  -74.533780092   -33.2453   2   8   0.0000   0.0553   0.0291  -0.1204  -0.0707   0.0621   0.00    1.3
2401  12600.000   24.065181451  -74.533780060   -33.2328   2   8   0.0000   0.0000  64.4342  38.4408  39.0073  63.6537   0.00    1.3
2401  12630.000   24.065181467  -74.533779955   -33.2358   2   8   0.0000  82.7617  47.3344 -58.5108 -70.4352  75.3563   0.00    1.4
2401  12660.000   24.065181447  -74.533779808   -33.2576   2   8   0.0059   0.0082   0.0252  -0.0020  -0.0095  -0.0067   0.00    1.4
2401  12690.000   24.065181441  -74.533779632   -33.2989   2   8   0.0000   0.0000   0.0000  -0.0751  -0.0589  -0.1560   0.00    1.5
2401  12720.000   24.065181438  -74.533779505   -33.3186   2   8 115.4896   0.0000  48.8960 -82.9544 -65.3384  85.8890   0.00    1.4
2401  12750.000   24.065181455  -74.533779400   -33.3196   2   8   0.0058   0.0080   0.0249  -0.0019  -0.0093  -0.0066   0.00    1.2
2401  12780.000   24.065181416  -74.533779425   -33.2750   2   8   0.1013   0.1228   0.0000  -0.0712  -0.0572  -0.0619   0.00    1.1
2401  12810.000   24.065181386  -74.533779335   -33.2514   2   8   0.0000   0.0000   0.0000 -39.5705  -4.7630 -44.3668   0.00    1.1
2401  12840.000   24.065181356  -74.533779222   -33.2469   2   8   0.0000  61.6066   0.0000 -50.3543  25.7980 -63.4365   0.00    1.3
2401  12870.000   24.065181330  -74.533779190   -33.2214   2   8 126.3276  38.8875  39.9628  55.4110  62.7601  62.6909   0.00    1.4
2401  12900.000   24.065181348  -74.533779200   -33.2031   2   8   0.0059   0.0081   0.0244  -0.0024  -0.0089  -0.0060   0.00    1.5
2401  12930.000   24.065181356  -74.533779174   -33.2075   2   8   0.0000   0.1088   0.0365   0.0854   0.0496  -0.0346   0.00    1.5
2401  12960.000   24.065181330  -74.533779129   -33.1820   2   8   0.0000  82.8370   0.0000 -37.1733  47.2118 -67.8670   0.00    1.6
2401  12990.000   24.065181319  -74.533779128   -33.1692   2   8   0.0059   0.0078   0.0241  -0.0022  -0.0086  -0.0056   0.00    1.6
2401  13020.000   24.065181338  -74.533779069   -33.1634   2   8   0.0668   0.1502   0.0349  -0.0768  -0.0605   0.0314   0.00    1.6
2401  13050.000   24.065181350  -74.533779088   -33.1548   2   8   0.0000 118.5656   0.0000 -27.4883 -47.5785 -131.1506   0.00    1.6
2401  13080.000   24.065181302  -74.533779069   -33.1422   2   8 123.8186   0.0000   0.0000 -44.7436 -62.5519 -70.8337   0.00    1.6
2401  13110.000   24.065181264  -74.533779025   -33.1377   2   8   0.0056   0.0079   0.0236  -0.0027  -0.0083  -0.0054   0.00    1.6
2401  13140.000   24.065181249  -74.533778962   -33.1202   2   8   0.0000   0.0000   0.0000   0.0786   0.0995  -0.0871   0.00    1.6
2401  13170.000   24.065181236  -74.533778935   -33.1023   2   8   0.0000  57.0639   0.0000  66.7626 -58.2944 -30.6426   0.00    1.4
2401  13200.000   24.065181234  -74.533778925   -33.1017   2   8   0.0000  55.1489  73.0585  74.8488  85.2016  81.5674   0.00    1.3
2401  13230.000   24.065181221  -74.533778925   -33.0863   2   8   0.0000   0.0000   0.0000  68.5708 -10.8094  35.9823   0.00    1.1
